$GPGGA,135847.000,4822.4728,N,00427.3128,W,1,00,,0052.7,M,0.0,M,,0000*60
$GPRMC,135847.000,A,4822.4728,N,00427.3128,W,005.06,15.15,151108,,,E*47
$GPGGA,135848.000,4822.4734,N,00427.3112,W,1,00,,0052.7,M,0.0,M,,0000*6B
$GPRMC,135848.000,A,4822.4734,N,00427.3112,W,005.06,15.15,151108,,,E*4C
$GPGGA,135849.000,4822.4746,N,00427.3097,W,1,00,,0052.7,M,0.0,M,,0000*63
$GPRMC,135849.000,A,4822.4746,N,00427.3097,W,005.09,15.15,151108,,,E*4B
$GPGGA,135850.000,4822.4755,N,00427.3081,W,1,00,,0052.7,M,0.0,M,,0000*6E
$GPRMC,135850.000,A,4822.4755,N,00427.3081,W,005.10,15.15,151108,,,E*4E
$GPGGA,135851.000,4822.4764,N,00427.3066,W,1,00,,0052.7,M,0.0,M,,0000*64
$GPRMC,135851.000,A,4822.4764,N,00427.3066,W,005.06,15.15,151108,,,E*43
$GPGGA,135852.000,4822.4773,N,00427.3050,W,1,00,,0052.7,M,0.0,M,,0000*64
$GPRMC,135852.000,A,4822.4773,N,00427.3050,W,005.09,15.15,151108,,,E*4C
$GPGGA,135853.000,4822.4780,N,00427.3034,W,1,00,,0052.7,M,0.0,M,,0000*6B
$GPRMC,135853.000,A,4822.4780,N,00427.3034,W,005.08,15.15,151108,,,E*42
$GPGGA,135854.000,4822.4792,N,00427.3018,W,1,00,,0052.7,M,0.0,M,,0000*61
$GPRMC,135854.000,A,4822.4792,N,00427.3018,W,005.11,15.15,151108,,,E*40
$GPGGA,135855.000,4822.4799,N,00427.3002,W,1,00,,0052.7,M,0.0,M,,0000*60
$GPRMC,135855.000,A,4822.4799,N,00427.3002,W,005.08,15.15,151108,,,E*49
$GPGGA,135856.000,4822.4808,N,00427.2986,W,1,00,,0052.7,M,0.0,M,,0000*60
$GPRMC,135856.000,A,4822.4808,N,00427.2986,W,005.04,15.15,151108,,,E*45
$GPGGA,135857.000,4822.4817,N,00427.2970,W,1,00,,0052.7,M,0.0,M,,0000*66
$GPRMC,135857.000,A,4822.4817,N,00427.2970,W,005.05,15.15,151108,,,E*42
$GPGGA,135858.000,4822.4826,N,00427.2955,W,1,00,,0052.7,M,0.0,M,,0000*6C
$GPRMC,135858.000,A,4822.4826,N,00427.2955,W,005.09,15.15,151108,,,E*44
$GPGGA,135859.000,4822.4835,N,00427.2939,W,1,00,,0052.7,M,0.0,M,,0000*65
$GPRMC,135859.000,A,4822.4835,N,00427.2939,W,005.09,15.15,151108,,,E*4D
$GPGGA,135900.000,4822.4844,N,00427.2923,W,1,00,,0052.7,M,0.0,M,,0000*65
$GPRMC,135900.000,A,4822.4844,N,00427.2923,W,005.12,15.15,151108,,,E*47
$GPGGA,135901.000,4822.4851,N,00427.2907,W,1,00,,0052.7,M,0.0,M,,0000*66
$GPRMC,135901.000,A,4822.4851,N,00427.2907,W,005.13,15.15,151108,,,E*45
$GPGGA,135902.000,4822.4863,N,00427.2891,W,1,00,,0052.7,M,0.0,M,,0000*6A
$GPRMC,135902.000,A,4822.4863,N,00427.2891,W,005.08,15.15,151108,,,E*43
$GPGGA,135903.000,4822.4872,N,00427.2876,W,1,00,,0052.7,M,0.0,M,,0000*62
$GPRMC,135903.000,A,4822.4872,N,00427.2876,W,005.09,15.15,151108,,,E*4A
$GPGGA,135904.000,4822.4881,N,00427.2861,W,1,00,,0052.7,M,0.0,M,,0000*6F
$GPRMC,135904.000,A,4822.4881,N,00427.2861,W,005.11,15.15,151108,,,E*4E
$GPGGA,135905.000,4822.4890,N,00427.2845,W,1,00,,0052.7,M,0.0,M,,0000*68
$GPRMC,135905.000,A,4822.4890,N,00427.2845,W,005.10,15.15,151108,,,E*48
$GPGGA,135906.000,4822.4899,N,00427.2830,W,1,00,,0052.7,M,0.0,M,,0000*60
$GPRMC,135906.000,A,4822.4899,N,00427.2830,W,005.11,15.15,151108,,,E*41
$GPGGA,135907.000,4822.4911,N,00427.2815,W,1,00,,0052.7,M,0.0,M,,0000*67
$GPRMC,135907.000,A,4822.4911,N,00427.2815,W,005.13,15.15,151108,,,E*44
$GPGGA,135908.000,4822.4918,N,00427.2799,W,1,00,,0052.7,M,0.0,M,,0000*6A
$GPRMC,135908.000,A,4822.4918,N,00427.2799,W,005.10,15.15,151108,,,E*4A
$GPGGA,135909.000,4822.4929,N,00427.2784,W,1,00,,0052.7,M,0.0,M,,0000*65
$GPRMC,135909.000,A,4822.4929,N,00427.2784,W,005.00,15.15,151108,,,E*44
$GPGGA,135910.000,4822.4938,N,00427.2769,W,1,00,,0052.7,M,0.0,M,,0000*6E
$GPRMC,135910.000,A,4822.4938,N,00427.2769,W,004.98,15.15,151108,,,E*4F
$GPGGA,135911.000,4822.4947,N,00427.2755,W,1,00,,0052.7,M,0.0,M,,0000*68
$GPRMC,135911.000,A,4822.4947,N,00427.2755,W,005.00,15.15,151108,,,E*49
$GPGGA,135912.000,4822.4957,N,00427.2742,W,1,00,,0052.7,M,0.0,M,,0000*6C
$GPRMC,135912.000,A,4822.4957,N,00427.2742,W,005.06,15.15,151108,,,E*4B
$GPGGA,135913.000,4822.4968,N,00427.2727,W,1,00,,0052.7,M,0.0,M,,0000*62
$GPRMC,135913.000,A,4822.4968,N,00427.2727,W,005.11,15.15,151108,,,E*43
$GPGGA,135914.000,4822.4977,N,00427.2713,W,1,00,,0052.7,M,0.0,M,,0000*6C
$GPRMC,135914.000,A,4822.4977,N,00427.2713,W,005.15,15.15,151108,,,E*49
$GPGGA,135915.000,4822.4989,N,00427.2698,W,1,00,,0052.7,M,0.0,M,,0000*6E
$GPRMC,135915.000,A,4822.4989,N,00427.2698,W,005.13,15.15,151108,,,E*4D
$GPGGA,135916.000,4822.4998,N,00427.2684,W,1,00,,0052.7,M,0.0,M,,0000*60
$GPRMC,135916.000,A,4822.4998,N,00427.2684,W,005.10,15.15,151108,,,E*40
$GPGGA,135917.000,4822.5009,N,00427.2669,W,1,00,,0052.7,M,0.0,M,,0000*62
$GPRMC,135917.000,A,4822.5009,N,00427.2669,W,005.12,15.15,151108,,,E*40
$GPGGA,135918.000,4822.5018,N,00427.2654,W,1,00,,0052.7,M,0.0,M,,0000*63
$GPRMC,135918.000,A,4822.5018,N,00427.2654,W,005.11,15.15,151108,,,E*42
$GPGGA,135919.000,4822.5027,N,00427.2639,W,1,00,,0052.7,M,0.0,M,,0000*65
$GPRMC,135919.000,A,4822.5027,N,00427.2639,W,005.09,15.15,151108,,,E*4D
$GPGGA,135920.000,4822.5037,N,00427.2624,W,1,00,,0052.7,M,0.0,M,,0000*62
$GPRMC,135920.000,A,4822.5037,N,00427.2624,W,005.07,15.15,151108,,,E*44
$GPGGA,135921.000,4822.5048,N,00427.2609,W,1,00,,0052.7,M,0.0,M,,0000*64
$GPRMC,135921.000,A,4822.5048,N,00427.2609,W,005.04,15.15,151108,,,E*41
$GPGGA,135922.000,4822.5055,N,00427.2595,W,1,00,,0052.7,M,0.0,M,,0000*6D
$GPRMC,135922.000,A,4822.5055,N,00427.2595,W,005.01,15.15,151108,,,E*4D
$GPGGA,135923.000,4822.5066,N,00427.2580,W,1,00,,0052.7,M,0.0,M,,0000*68
$GPRMC,135923.000,A,4822.5066,N,00427.2580,W,004.99,15.15,151108,,,E*48
$GPGGA,135924.000,4822.5076,N,00427.2565,W,1,00,,0052.7,M,0.0,M,,0000*65
$GPRMC,135924.000,A,4822.5076,N,00427.2565,W,005.00,15.15,151108,,,E*44
$GPGGA,135925.000,4822.5085,N,00427.2551,W,1,00,,0052.7,M,0.0,M,,0000*6F
$GPRMC,135925.000,A,4822.5085,N,00427.2551,W,005.00,15.15,151108,,,E*4E
$GPGGA,135926.000,4822.5094,N,00427.2536,W,1,00,,0052.7,M,0.0,M,,0000*6D
$GPRMC,135926.000,A,4822.5094,N,00427.2536,W,004.97,15.15,151108,,,E*43
$GPGGA,135927.000,4822.5103,N,00427.2521,W,1,00,,0052.7,M,0.0,M,,0000*65
$GPRMC,135927.000,A,4822.5103,N,00427.2521,W,005.00,15.15,151108,,,E*44
$GPGGA,135928.000,4822.5112,N,00427.2506,W,1,00,,0052.7,M,0.0,M,,0000*6F
$GPRMC,135928.000,A,4822.5112,N,00427.2506,W,005.03,15.15,151108,,,E*4D
$GPGGA,135929.000,4822.5124,N,00427.2491,W,1,00,,0052.7,M,0.0,M,,0000*64
$GPRMC,135929.000,A,4822.5124,N,00427.2491,W,005.07,15.15,151108,,,E*42
$GPGGA,135930.000,4822.5130,N,00427.2476,W,1,00,,0052.7,M,0.0,M,,0000*60
$GPRMC,135930.000,A,4822.5130,N,00427.2476,W,005.08,15.15,151108,,,E*49
$GPGGA,135931.000,4822.5142,N,00427.2461,W,1,00,,0052.7,M,0.0,M,,0000*62
$GPRMC,135931.000,A,4822.5142,N,00427.2461,W,005.11,15.15,151108,,,E*43
$GPGGA,135932.000,4822.5149,N,00427.2446,W,1,00,,0052.7,M,0.0,M,,0000*6F
$GPRMC,135932.000,A,4822.5149,N,00427.2446,W,005.11,15.15,151108,,,E*4E
$GPGGA,135933.000,4822.5160,N,00427.2430,W,1,00,,0052.7,M,0.0,M,,0000*64
$GPRMC,135933.000,A,4822.5160,N,00427.2430,W,005.15,15.15,151108,,,E*41
$GPGGA,135934.000,4822.5167,N,00427.2414,W,1,00,,0052.7,M,0.0,M,,0000*62
$GPRMC,135934.000,A,4822.5167,N,00427.2414,W,005.14,15.15,151108,,,E*46
$GPGGA,135935.000,4822.5179,N,00427.2397,W,1,00,,0052.7,M,0.0,M,,0000*60
$GPRMC,135935.000,A,4822.5179,N,00427.2397,W,005.14,15.15,151108,,,E*44
$GPGGA,135936.000,4822.5185,N,00427.2381,W,1,00,,0052.7,M,0.0,M,,0000*67
$GPRMC,135936.000,A,4822.5185,N,00427.2381,W,005.13,15.15,151108,,,E*44
$GPGGA,135937.000,4822.5195,N,00427.2365,W,1,00,,0052.7,M,0.0,M,,0000*6D
$GPRMC,135937.000,A,4822.5195,N,00427.2365,W,005.10,15.15,151108,,,E*4D
$GPGGA,135938.000,4822.5204,N,00427.2349,W,1,00,,0052.7,M,0.0,M,,0000*67
$GPRMC,135938.000,A,4822.5204,N,00427.2349,W,005.09,15.15,151108,,,E*4F
$GPGGA,135939.000,4822.5213,N,00427.2332,W,1,00,,0052.6,M,0.0,M,,0000*6D
$GPRMC,135939.000,A,4822.5213,N,00427.2332,W,005.10,15.15,151108,,,E*4C